
-0025 -0059 -1509  0026  0016 -0059  0153 -0043  1025 -0458  0258  0183  2724 
$GPVTG,,T,,M,0.257,N,0.476,K,A*26
$GPGGA,034707.00,1046.19447,N,10645.66976,E,1,06,1.72,-3.2,M,-2.2,M,,*6A
-0021 -0059 -1511 -0020  0016  0013  0063 -0049  1005 -0458  0258  0182  2738 
$GPVTG,,T,,M,0.085,N,0.158,K,A*22
$GPGGA,034707.10,1046.19452,N,10645.66980,E,1,06,1.72,-3.4,M,-2.2,M,,*60
-0025 -0057 -1508 -0003 -0016 -0037  0089 -0059  1028 -0459  0260  0183  2738 
$GPVTG,,T,,M,0.109,N,0.201,K,A*28
$GPGGA,034707.20,1046.19460,N,10645.66980,E,1,06,1.72,-3.5,M,-2.2,M,,*63
-0024 -0059 -1509  0011 -0030 -0035  0119  0006  1022 -0460  0261  0182  2724 
$GPVTG,,T,,M,0.192,N,0.356,K,A*29
$GPGGA,034707.30,1046.19462,N,10645.66981,E,1,06,1.72,-3.5,M,-2.2,M,,*61
-0022 -0060 -1509 -0052  0008  0001  0126 -0066  1018 -0459  0261  0183  2738 
$GPVTG,,T,,M,0.135,N,0.249,K,A*2B
$GPGGA,034707.40,1046.19461,N,10645.66983,E,1,06,1.72,-3.5,M,-2.2,M,,*67
-0027 -0056 -1507 -0038 -0003 -0013  0136 -0086  1045 -0459  0262  0183  2724 
$GPVTG,,T,,M,0.176,N,0.327,K,A*25
$GPGGA,034707.50,1046.19462,N,10645.66984,E,1,06,1.72,-3.5,M,-2.2,M,,*62
-0026 -0056 -1507  0078 -0012 -0048  0099 -0023  1032 -0460  0261  0182  2738 
$GPVTG,,T,,M,0.199,N,0.369,K,A*2E
$GPGGA,034707.60,1046.19461,N,10645.66984,E,1,06,1.72,-3.5,M,-2.2,M,,*62
-0021 -0062 -1511 -0035  0030  0002  0119 -0019  1045 -0458  0258  0182  2738 
$GPVTG,,T,,M,0.137,N,0.254,K,A*25
$GPGGA,034707.70,1046.19458,N,10645.66986,E,1,06,1.72,-3.5,M,-2.2,M,,*6B
-0025 -0057 -1507 -0024 -0013  0000  0089 -0059  1025 -0457  0258  0183  2738 
$GPVTG,,T,,M,0.057,N,0.105,K,A*25
$GPGGA,034707.80,1046.19456,N,10645.66988,E,1,06,1.72,-3.5,M,-2.2,M,,*64
-0025 -0057 -1508  0051  0010 -0053  0086 -0029  1032 -0458  0258  0182  2738 
$GPVTG,,T,,M,0.206,N,0.381,K,A*2D
$GPGGA,034707.90,1046.19457,N,10645.66989,E,1,06,1.72,-3.5,M,-2.2,M,,*65
-0020 -0060 -1510  0007  0020 -0015  0103 -0049  1028 -0458  0258  0181  2738 
$GPVTG,,T,,M,0.140,N,0.259,K,A*28
$GPGGA,034708.00,1046.19457,N,10645.66989,E,1,06,1.72,-3.4,M,-2.2,M,,*62
-0024 -0055 -1508 -0075 -0038  0017  0153 -0073  1035 -0458  0259  0183  2724 
$GPVTG,,T,,M,0.180,N,0.333,K,A*29
$GPGGA,034708.10,1046.19458,N,10645.66988,E,1,06,1.72,-3.4,M,-2.2,M,,*6D
-0025 -0061 -1509  0079  0072 -0037  0056 -0056  1018 -0460  0261  0182  2738 
$GPVTG,,T,,M,0.150,N,0.277,K,A*25
$GPGGA,034708.20,1046.19458,N,10645.66988,E,1,06,1.72,-3.4,M,-2.2,M,,*6E
-0023 -0054 -1507 -0024 -0032 -0006  0139 -0016  1058 -0460  0260  0181  2752 
$GPVTG,,T,,M,0.222,N,0.412,K,A*26
$GPGGA,034708.30,1046.19456,N,10645.66987,E,1,06,1.72,-3.4,M,-2.2,M,,*6E
-0023 -0059 -1508 -0020  0007 -0011  0053 -0043  1038 -0460  0261  0181  2738 
$GPVTG,,T,,M,0.208,N,0.386,K,A*24
$GPGGA,034708.40,1046.19456,N,10645.66986,E,1,06,1.72,-3.4,M,-2.2,M,,*68
-0025 -0057 -1507  0000 -0006 -0022  0159 -0043  1035 -0459  0261  0182  2752 
$GPVTG,,T,,M,0.186,N,0.344,K,A*2F
$GPGGA,034708.50,1046.19455,N,10645.66987,E,1,06,1.72,-3.5,M,-2.2,M,,*6A
-0023 -0057 -1508  0021  0005 -0021  0073 -0036  1032 -0461  0261  0181  2738 
$GPVTG,,T,,M,0.112,N,0.208,K,A*2B
$GPGGA,034708.60,1046.19454,N,10645.66990,E,1,06,1.72,-3.5,M,-2.2,M,,*6E
-0023 -0059 -1509  0001 -0002 -0022  0153 -0013  1018 -0459  0258  0183  2738 
$GPVTG,,T,,M,0.179,N,0.331,K,A*2D
$GPGGA,034708.70,1046.19452,N,10645.66989,E,1,06,1.72,-3.6,M,-2.2,M,,*62
-0022 -0057 -1508 -0014  0001 -0005  0073 -0036  1042 -0459  0259  0182  2724 
$GPVTG,,T,,M,0.423,N,0.784,K,A*2D
$GPGGA,034708.80,1046.19447,N,10645.66988,E,1,06,1.72,-3.6,M,-2.2,M,,*68
-0024 -0059 -1508 -0003 -0007 -0024  0133 -0053  1045 -0460  0258  0182  2738 
$GPVTG,,T,,M,0.194,N,0.359,K,A*20
$GPGGA,034708.90,1046.19447,N,10645.66989,E,1,06,1.72,-3.6,M,-2.2,M,,*68
-0023 -0057 -1509  0006 -0020 -0028  0099 -0026  1038 -0459  0257  0183  2738 
$GPVTG,,T,,M,0.142,N,0.262,K,A*22
$GPGGA,034709.00,1046.19448,N,10645.66988,E,1,06,1.72,-3.6,M,-2.2,M,,*6E
-0020 -0061 -1511 -0008  0027 -0013  0106 -0036  1032 -0461  0259  0180  2738 
$GPVTG,,T,,M,0.087,N,0.162,K,A*29
$GPGGA,034709.10,1046.19450,N,10645.66988,E,1,05,1.74,-3.5,M,-2.2,M,,*60
-0023 -0056 -1509 -0069  0000  0011  0169 -0056  1025 -0459  0261  0181  2738 
$GPVTG,,T,,M,0.052,N,0.096,K,A*2B
$GPGGA,034709.20,1046.19450,N,10645.66988,E,1,05,1.74,-3.5,M,-2.2,M,,*63
-0024 -0058 -1508  0051  0010 -0027  0023 -0059  1038 -0460  0261  0180  2738 
$GPVTG,,T,,M,0.056,N,0.104,K,A*25
$GPGGA,034709.30,1046.19449,N,10645.66989,E,1,05,1.74,-3.5,M,-2.2,M,,*6B
-0023 -0063 -1509  0010  0005 -0052  0216 -0016  1032 -0461  0260  0180  2752 
$GPVTG,,T,,M,0.096,N,0.179,K,A*23
$GPGGA,034709.40,1046.19451,N,10645.66987,E,1,05,1.74,-3.4,M,-2.2,M,,*6A
-0021 -0057 -1509 -0038 -0018  0015  0026 -0036  1038 -0461  0261  0180  2738 
$GPVTG,,T,,M,0.065,N,0.121,K,A*22
$GPGGA,034709.50,1046.19451,N,10645.66987,E,1,05,1.74,-3.3,M,-2.2,M,,*6C
-0026 -0059 -1508 -0003  0034 -0013  0166 -0059  1018 -0462  0260  0182  2752 
$GPVTG,,T,,M,0.080,N,0.148,K,A*26
$GPGGA,034709.60,1046.19452,N,10645.66987,E,1,05,1.74,-3.3,M,-2.2,M,,*6C
-0023 -0053 -1509  0016 -0008 -0023  0083 -0029  1032 -0460  0258  0180  2738 
$GPVTG,,T,,M,0.145,N,0.268,K,A*2F
$GPGGA,034709.70,1046.19451,N,10645.66987,E,1,05,1.74,-3.2,M,-2.2,M,,*6F
-0023 -0061 -1511 -0054  0031  0004  0129 -0033  1018 -0460  0258  0182  2738 
$GPVTG,,T,,M,0.113,N,0.209,K,A*2B
$GPGGA,034709.80,1046.19451,N,10645.66988,E,1,05,1.74,-3.2,M,-2.2,M,,*6F
-0026 -0055 -1509  0020 -0015 -0013  0083 -0053  1025 -0461  0259  0179  2738 
$GPVTG,,T,,M,0.140,N,0.258,K,A*29
$GPGGA,034709.90,1046.19451,N,10645.66987,E,1,05,1.74,-3.1,M,-2.2,M,,*62
-0021 -0058 -1511  0055 -0011 -0035  0126 -0016  1058 -0460  0258  0179  2738 
$GPVTG,,T,,M,0.138,N,0.255,K,A*2B
$GPGGA,034710.00,1046.19453,N,10645.66988,E,1,05,1.74,-3.1,M,-2.2,M,,*6E
-0021 -0059 -1512 -0068 -0012 -0011  0063 -0053  1065 -0460  0258  0180  2752 
$GPVTG,,T,,M,0.359,N,0.664,K,A*28
$GPGGA,034710.10,1046.19448,N,10645.66992,E,1,05,1.74,-3.1,M,-2.2,M,,*6E
-0024 -0059 -1510 -0012  0006 -0013  0129 -0046  1028 -0462  0261  0182  2752 
$GPVTG,,T,,M,0.163,N,0.301,K,A*25
$GPGGA,034710.20,1046.19451,N,10645.66991,E,1,05,1.74,-3.0,M,-2.2,M,,*67
-0023 -0056 -1511  0030 -0006 -0041  0103 -0039  1008 -0462  0260  0182  2738 
$GPVTG,,T,,M,0.333,N,0.616,K,A*21
$GPGGA,034710.30,1046.19453,N,10645.66991,E,1,05,1.74,-3.0,M,-2.2,M,,*64
-0021 -0059 -1512 -0029 -0004  0001  0106 -0053  1042 -0464  0260  0180  2752 
$GPVTG,,T,,M,0.191,N,0.354,K,A*28
$GPGGA,034710.40,1046.19450,N,10645.66994,E,1,05,1.74,-3.0,M,-2.2,M,,*65
-0024 -0059 -1510 -0004  0015 -0029  0173 -0043  1028 -0463  0261  0182  2752 
$GPVTG,,T,,M,0.378,N,0.699,K,A*29
$GPGGA,034710.50,1046.19447,N,10645.66995,E,1,05,1.74,-3.0,M,-2.2,M,,*63
-0022 -0055 -1511  0001 -0004 -0013  0063 -0036  1028 -0463  0260  0182  2752 
$GPVTG,,T,,M,0.603,N,1.117,K,A*20
$GPGGA,034710.60,1046.19439,N,10645.66999,E,1,05,1.74,-3.1,M,-2.2,M,,*64
-0020 -0063 -1511  0071 -0045  0000  0066  0003  0975 -0459  0260  0181  2738 
$GPVTG,,T,,M,0.246,N,0.455,K,A*27
$GPGGA,034710.70,1046.19438,N,10645.67001,E,1,05,1.74,-3.1,M,-2.2,M,,*6D
-0020 -0057 -1510 -0054 -0020 -0049  0149 -0046  1038 -0460  0259  0179  2752 
$GPVTG,,T,,M,0.214,N,0.397,K,A*29
$GPGGA,034710.80,1046.19436,N,10645.67004,E,1,05,1.74,-3.1,M,-2.2,M,,*69
-0020 -0059 -1511 -0014  0027  0016  0073 -0039  1048 -0459  0260  0180  2752 
$GPVTG,,T,,M,0.547,N,1.014,K,A*21
$GPGGA,034710.90,1046.19427,N,10645.67007,E,1,05,1.74,-3.0,M,-2.2,M,,*6A
-0024 -0055 -1509 -0047 -0021 -0029  0096 -0066  1048 -0459  0259  0181  2738 
$GPVTG,,T,,M,0.362,N,0.670,K,A*25
$GPGGA,034711.00,1046.19423,N,10645.67011,E,1,05,1.74,-2.9,M,-2.2,M,,*69
-0025 -0059 -1509  0034  0021 -0013  0106 -0069  1042 -0460  0260  0180  2752 
$GPVTG,,T,,M,0.319,N,0.590,K,A*24
$GPGGA,034711.10,1046.19423,N,10645.67011,E,1,05,1.74,-2.9,M,-2.2,M,,*68
-0022 -0057 -1511 -0031 -0004 -0029  0096 -0019  1042 -0462  0261  0181  2752 
$GPVTG,,T,,M,0.290,N,0.538,K,A*26
$GPGGA,034711.20,1046.19422,N,10645.67012,E,1,05,1.74,-2.8,M,-2.2,M,,*68
-0022 -0058 -1510 -0010  0066  0027  0099 -0073  1042 -0460  0262  0182  2738 
$GPVTG,,T,,M,0.394,N,0.730,K,A*29
$GPGGA,034711.30,1046.19420,N,10645.67011,E,1,05,1.74,-2.9,M,-2.2,M,,*69
-0025 -0062 -1510 -0021 -0025 -0048  0219 -0066  0959 -0461  0260  0182  2752 
$GPVTG,,T,,M,0.368,N,0.681,K,A*21
$GPGGA,034711.40,1046.19420,N,10645.67009,E,1,05,1.74,-2.9,M,-2.2,M,,*67
-0024 -0052 -1509 -0009  0025 -0005  0049 -0039  1048 -0460  0261  0182  2738 
$GPVTG,,T,,M,0.536,N,0.993,K,A*20
$GPGGA,034711.50,1046.19420,N,10645.67006,E,1,05,1.74,-2.9,M,-2.2,M,,*69
-0023 -0062 -1510  0044 -0002 -0024  0149 -0033  1058 -0460  0260  0184  2752 
$GPVTG,,T,,M,0.434,N,0.804,K,A*2C
$GPGGA,034711.60,1046.19427,N,10645.67006,E,1,05,1.74,-3.0,M,-2.2,M,,*65
-0021 -0060 -1510 -0002  0001 -0021  0103 -0036  1048 -0459  0259  0179  2752 
$GPVTG,,T,,M,0.938,N,1.737,K,A*23
$GPGGA,034711.70,1046.19419,N,10645.67000,E,1,06,1.72,-3.1,M,-2.2,M,,*6B
-0023 -0061 -1511 -0035  0000  0006  0126 -0036  1025 -0459  0259  0180  2752 
$GPVTG,273.48,T,,M,0.944,N,1.749,K,A*35
$GPGGA,034711.80,1046.19424,N,10645.66996,E,1,06,1.72,-3.2,M,-2.2,M,,*6E
-0024 -0060 -1510  0006  0006 -0046  0086 -0056  1038 -0459  0259  0180  2738 
$GPVTG,276.44,T,,M,0.878,N,1.627,K,A*3B
$GPGGA,034711.90,1046.19431,N,10645.66991,E,1,06,1.72,-3.2,M,-2.2,M,,*6C
-0023 -0059 -1511  0010 -0023 -0016  0116 -0036  1045 -0458  0259  0182  2752 
$GPVTG,,T,,M,0.725,N,1.343,K,A*26
$GPGGA,034712.00,1046.19438,N,10645.66987,E,1,06,1.72,-3.3,M,-2.2,M,,*69
-0022 -0063 -1511 -0034  0012 -0015  0113 -0046  1035 -0458  0259  0182  2766 
$GPVTG,282.08,T,,M,1.064,N,1.970,K,A*31
$GPGGA,034712.10,1046.19443,N,10645.66978,E,1,
-0023 -0062 -1511 -0027 -0007  0012  0079 -0053  1038 -0459  0262  0184  2752 
$GPVTG,279.81,T,,M,1.053,N,1.949,K,A*3A
$GPGGA,034712.20,1046.19445,N,10645.66974,E,1,06,1.72,-3.6,M,-2.2,M,,*68
-0024 -0054 -1508  0013  0051 -0042  0083 -0039  1045 -0460  0262  0184  2766 
$GPVTG,286.72,T,,M,1.273,N,2.357,K,A*30
$GPGGA,034712.30,1046.19449,N,10645.66971,E,1,06,1.72,-3.7,M,-2.2,M,,*61
-0024 -0057 -1511  0032 -0028 -0048  0159 -0043  1038 -0463  0260  0181  2752 
$GPVTG,,T,,M,0.670,N,1.242,K,A*27
$GPGGA,034712.40,1046.19450,N,10645.66974,E,1,06,1.72,-3.7,M,-2.2,M,,*6B
-0021 -0064 -1511 -0068 -0001 -0001  0206 -0073  1082 -0462  0262  0180  2752 
$GPVTG,,T,,M,0.743,N,1.375,K,A*23
$GPGGA,034712.50,1046.19456,N,10645.66981,E,1,06,1.72,-3.6,M,-2.2,M,,*67
-0026 -0055 -1509 -0078  0033  0053  0076 -0046  0979 -0459  0261  0185  2766 
$GPVTG,,T,,M,0.970,N,1.796,K,A*24
$GPGGA,034712.60,1046.19459,N,10645.66985,E,1,06,1.72,-3.9,M,-2.2,M,,*60
-0031 -0059 -1506  0036 -0008 -0051  0096 -0066  1038 -0457  0258  0184  2738 
$GPVTG,,T,,M,0.823,N,1.525,K,A*29
$GPGGA,034712.70,1046.19452,N,10645.66991,E,1,06,1.72,-4.6,M,-2.2,M,,*67
-0028 -0054 -1508  0089 -0013 -0063  0079 -0056  0975 -0459  0259  0181  2752 
$GPVTG,,T,,M,0.642,N,1.189,K,A*22
$GPGGA,034712.80,1046.19455,N,10645.66989,E,1,04,1.76,-4.6,M,-2.2,M,,*60
-0023 -0061 -1512 -0007  0063  0012  0006  0003  1005 -0460  0259  0181  2724 
$GPVTG,,T,,M,0.492,N,0.911,K,A*25
$GPGGA,034712.90,1046.19459,N,10645.66988,E,1,05,1.75,-4.5,M,-2.2,M,,*6D
-0027 -0056 -1508 -0008 -0106 -0026  0119 -0059  1022 -0458  0259  0181  2752 
$GPVTG,,T,,M,0.362,N,0.670,K,A*25
$GPGGA,034713.00,1046.19461,N,10645.66988,E,1,05,1.75,-4.4,M,-2.2,M,,*6F
-0024 -0062 -1509  0071  0072 -0043  0143 -0049  1052 -0458  0258  0181  2752 
$GPVTG,,T,,M,0.108,N,0.200,K,A*28
$GPGGA,034713.10,1046.19463,N,10645.66983,E,1,05,1.75,-4.3,M,-2.2,M,,*60
-0019 -0059 -1511  0025 -0019 -0039  0123 -0019  1052 -0460  0262  0182  2752 
$GPVTG,,T,,M,0.120,N,0.222,K,A*22
$GPGGA,034713.20,1046.19464,N,10645.66978,E,1,05,1.75,-4.3,M,-2.2,M,,*60
-0016 -0070 -1512  0053  0043 -0009  0146  0013  1035 -0460  0261  0181  2752 
$GPVTG,,T,,M,0.042,N,0.078,K,A*2A
$GPGGA,034713.30,1046.19464,N,10645.66977,E,1,05,1.75,-4.3,M,-2.2,M,,*6E
-0016 -0059 -1512 -0165  0064 -0023  0116 -0056  1052 -0462  0260  0180  2752 
$GPVTG,,T,,M,0.126,N,0.234,K,A*23
$GPGGA,034713.40,1046.19462,N,10645.66979,E,1,05,1.75,-4.2,M,-2.2,M,,*60
-0028 -0062 -1507  0087 -0052  0051  0093 -0059  1072 -0457  0262  0184  2738 
$GPVTG,,T,,M,0.235,N,0.436,K,A*26
$GPGGA,034713.50,1046.19461,N,10645.66979,E,1,05,1.75,-4.2,M,-2.2,M,,*62
-0024 -0055 -1507 -0019 -0006 -0114  0099 -0003  0995 -0459  0262  0181  2766 
$GPVTG,,T,,M,0.360,N,0.666,K,A*20
$GPGGA,034713.60,1046.19463,N,10645.66980,E,1,05,1.75,-4.1,M,-2.2,M,,*66
-0021 -0059 -1511 -0014  0020  0027  0146 -0026  1055 -0459  0258  0181  2766 
$GPVTG,,T,,M,0.262,N,0.486,K,A*2F
$GPGGA,034713.70,1046.19461,N,10645.66982,E,1,05,1.75,-4.0,M,-2.2,M,,*66
-0023 -0061 -1509 -0022  0000 -0010  0056 -0049  1068 -0458  0258  0181  2766 
$GPVTG,292.53,T,,M,0.769,N,1.424,K,A*39
$GPGGA,034713.80,1046.19463,N,10645.66977,E,1,05,1.75,-4.1,M,-2.2,M,,*60
-0026 -0058 -1509  0002 -0003 -0019  0133 -0069  1032 -0459  0258  0182  2766 
$GPVTG,,T,,M,0.457,N,0.846,K,A*2F
$GPGGA,034713.90,1046.19462,N,10645.66978,E,1,05,1.75,-4.0,M,-2.2,M,,*6E
-0024 -0057 -1509  0012 -0027 -0041  0093 -0033  1048 -0459  0260  0181  2752 
$GPVTG,,T,,M,0.292,N,0.540,K,A*2B
$GPGGA,034714.00,1046.19463,N,10645.66980,E,1,05,1.75,-4.0,M,-2.2,M,,*66
-0023 -0061 -1511 -0024 -0010 -0018  0119 -0069  1028 -0459  0258  0181  2752 
$GPVTG,,T,,M,0.549,N,1.017,K,A*2C
$GPGGA,034714.10,1046.19463,N,10645.66981,E,1,05,1.75,-4.0,M,-2.2,M,,*66
-0023 -0061 -1509  0022  0019  0006  0109 -0046  1055 -0459  0263  0183  2752 
$GPVTG,,T,,M,0.351,N,0.650,K,A*27
$GPGGA,034714.20,1046.19461,N,10645.66979,E,1,05,1.75,-4.0,M,-2.2,M,,*60
-0024 -0059 -1510 -0039  0011 -0068  0116 -0039  1022 -0459  0261  0184  2752 
$GPVTG,268.24,T,,M,1.333,N,2.468,K,A*3D
$GPGGA,034714.30,1046.19460,N,10645.66977,E,1,05,1.75,-4.1,M,-2.2,M,,*6F
-0022 -0064 -1510  0004 -0044  0062  0076 -0036  1048 -0459  0262  0183  2752 
$GPVTG,,T,,M,0.911,N,1.687,K,A*22
$GPGGA,034714.40,1046.19461,N,10645.66978,E,1,05,1.75,-4.1,M,-2.2,M,,*66
-0026 -0057 -1507 -0034  0013 -0077  0143 -0063  1048 -0458  0262  0183  2752 
$GPVTG,,T,,M,0.946,N,1.752,K,A*29
$GPGGA,034714.50,1046.19464,N,10645.66978,E,1,05,1.75,-4.1,M,-2.2,M,,*62
-0025 -0061 -1509  0013  0000  0004  0096 -0066  1015 -0460  0262  0181  2766 
$GPVTG,,T,,M,0.641,N,1.187,K,A*2F
$GPGGA,034714.60,1046.19459,N,10645.66984,E,1,06,1.72,-4.5,M,-2.2,M,,*6C
-0025 -0063 -1507  0050 -0032 -0038  0109 -0066  1032 -0457  0259  0183  2766 
$GPVTG,,T,,M,0.258,N,0.477,K,A*28
$GPGGA,034714.70,1046.19459,N,10645.66984,E,1,06,1.72,-4.6,M,-2.2,M,,*6E
-0020 -0061 -1511  0018  0007 -0050  0069 -0006  1058 -0458  0258  0183  2766 
$GPVTG,,T,,M,0.331,N,0.614,K,A*21
$GPGGA,034714.80,1046.19460,N,10645.66976,E,1,06,1.72,-4.5,M,-2.2,M,,*65
-0020 -0064 -1511 -0092 -0023  0018  0183 -0063  0979 -0459  0259  0183  2766 
$GPVTG,,T,,M,0.237,N,0.439,K,A*2B
$GPGGA,034714.90,1046.19460,N,10645.66976,E,1,06,1.72,-4.5,M,-2.2,M,,*64
-0023 -0065 -1508  0058  0041  0013  0053 -0063  1032 -0456  0260  0186  2752 
$GPVTG,,T,,M,0.336,N,0.622,K,A*23
$GPGGA,034715.00,1046.19459,N,10645.66977,E,1,06,1.72,-4.5,M,-2.2,M,,*67
-0024 -0060 -1511 -0106  0027 -0095  0136 -0079  1002 -0459  0259  0182  2752 
$GPVTG,,T,,M,0.412,N,0.763,K,A*26
$GPGGA,034715.10,1046.19457,N,10645.66980,E,1,06,1.72,-4.7,M,-2.2,M,,*62
-0025 -0060 -1510  0039  0001  0045  0103 -0059  1028 -0460  0262  0183  2766 
$GPVTG,,T,,M,0.314,N,0.581,K,A*29
$GPGGA,034715.20,1046.19455,N,10645.66982,E,1,06,1.72,-4.9,M,-2.2,M,,*6F
-0022 -0059 -1510  0016  0041 -0075  0099 -0039  1028 -0460  0262  0182  2752 
$GPVTG,,T,,M,0.249,N,0.461,K,A*2F
$GPGGA,034715.30,1046.19451,N,10645.66983,E,1,06,1.72,-5.0,M,-2.2,M,,*63
-0023 -0061 -1511 -0036 -0018  0015  0083 -0053  1035 -0459  0261  0182  2752 
$GPVTG,,T,,M,0.355,N,0.658,K,A*2B
$GPGGA,034715.40,1046.19446,N,10645.66992,E,1,06,1.72,-5.5,M,-2.2,M,,*67
-0025 -0057 -1507 -0001  0048 -0037  0133 -0089  1105 -0459  0262  0182  2766 
$GPVTG,,T,,M,0.433,N,0.803,K,A*2C
$GPGGA,034715.50,1046.19440,N,10645.66996,E,1,06,1.72,-5.7,M,-2.2,M,,*66
-0024 -0062 -1510  0079 -0012 -0010  0036  0023  1088 -0460  0261  0184  2766 
$GPVTG,,T,,M,0.253,N,0.469,K,A*2C
$GPGGA,034715.60,1046.19441,N,10645.66997,E,1,06,1.72,-5.8,M,-2.2,M,,*6A
-0022 -0059 -1509 -0076 -0040 -0039  0159 -0046  1048 -0460  0259  0181  2752 
$GPVTG,,T,,M,0.205,N,0.379,K,A*29
$GPGGA,034715.70,1046.19439,N,10645.66998,E,1,06,1.72,-5.9,M,-2.2,M,,*6A
-0024 -0061 -1510 -0003  0029  0014  0119 -0059  1012 -0458  0259  0184  2766 
$GPVTG,,T,,M,0.394,N,0.729,K,A*21
$GPGGA,034715.80,1046.19436,N,10645.66993,E,1,06,1.72,-6.0,M,-2.2,M,,*6B
-0025 -0056 -1509  0005  0005 -0036  0103 -0039  1042 -0459  0260  0183  2766 
$GPVTG,,T,,M,0.566,N,1.048,K,A*2B
$GPGGA,034715.90,1046.19434,N,10645.66991,E,1,06,1.72,-6.0,M,-2.2,M,,*6A
-0022 -0060 -1511  0002  0007 -0027  0096 -0039  1042 -0459  0259  0183  2766 
$GPVTG,,T,,M,0.527,N,0.977,K,A*2A
$GPGGA,034716.00,1046.19441,N,10645.66983,E,1,06,1.72,-6.1,M,-2.2,M,,*60
-0023 -0059 -1510 -0034 -0010 -0013  0116 -0053  1045 -0459  0259  0182  2766 
$GPVTG,,T,,M,0.633,N,1.172,K,A*20
$GPGGA,034716.10,1046.19437,N,10645.66984,E,1,06,1.72,-6.2,M,-2.2,M,,*64
-0024 -0059 -1510  0021 -0022 -0025  0099 -0046  1032 -0460  0262  0183  2752 
$GPVTG,,T,,M,0.431,N,0.798,K,A*23
$GPGGA,034716.20,1046.19433,N,10645.66989,E,1,06,1.72,-6.2,M,-2.2,M,,*6E
-0023 -0059 -1510  0000 -0004 -0023  0126 -0039  1038 -0460  0262  0182  2766 
$GPVTG,,T,,M,0.281,N,0.520,K,A*2F
$GPGGA,034716.30,1046.19426,N,10645.66998,E,1,06,1.72,-6.3,M,-2.2,M,,*6A
-0023 -0059 -1510 -0020  0012  0003  0093 -0043  1032 -0458  0261  0183  2766 
$GPVTG,,T,,M,0.579,N,1.073,K,A*2D
$GPGGA,034716.40,1046.19433,N,10645.66996,E,1,06,1.72,-6.3,M,-2.2,M,,*67
-0024 -0058 -1509 -0005  0000 -0014  0113 -0046  1035 -0460  0261  0183  2766 
$GPVTG,,T,,M,0.145,N,0.269,K,A*2E
$GPGGA,034716.50,1046.19423,N,10645.67003,E,1,06,1.72,-6.6,M,-2.2,M,,*66
-0023 -0059 -1509  0006  0005 -0027  0109 -0039  1035 -0460  0262  0182  2766 
$GPVTG,,T,,M,0.224,N,0.416,K,A*24
$GPGGA,034716.60,1046.19415,N,10645.67005,E,1,06,1.72,-7.0,M,-2.2,M,,*61
-0023 -0059 -1509 -0017 -0013 -0002  0113 -0039  1032 -0459  0258  0181  2752 
$GPVTG,,T,,M,0.229,N,0.424,K,A*28
$GPGGA,034716.70,1046.19411,N,10645.67008,E,1,06,1.72,-7.3,M,-2.2,M,,*6A
-0024 -0058 -1509  0002 -0005 -0015  0099 -0043  1035 -0457  0258  0182  2752 
$GPVTG,,T,,M,0.167,N,0.308,K,A*28
$GPGGA,034716.80,1046.19406,N,10645.67012,E,1,06,1.72,-7.6,M,-2.2,M,,*6D
-0022 -0049 -1507  0019 -0073  0113  0013  0003  1025 -0457  0259  0181  2766 
$GPVTG,,T,,M,0.124,N,0.230,K,A*25
$GPGGA,034716.90,1046.19401,N,10645.67016,E,1,06,1.72,-7.9,M,-2.2,M,,*60
-0025 -0066 -1505  0005  0039 -0041  0149 -0043  0999 -0453  0262  0181  2766 
$GPVTG,,T,,M,0.101,N,0.188,K,A*22
$GPGGA,034717.00,1046.19393,N,10645.67022,E,1,06,1.72,-8.2,M,-2.2,M,,*67
-0023 -0063 -1509 -0007  0035 -0075  0143 -0049  1045 -0455  0259  0182  2766 
$GPVTG,,T,,M,0.116,N,0.214,K,A*22
$GPGGA,034717.10,1046.19392,N,10645.67023,E,1,06,1.72,-8.3,M,-2.2,M,,*67
-0022 -0065 -1512 -0010  0002 -0019  0096 -0026  1042 -0449  0259  0182  2752 
$GPVTG,,T,,M,0.098,N,0.181,K,A*2A
$GPGGA,034717.20,1046.19394,N,10645.67024,E,1,06,1.72,-8.2,M,-2.2,M,,*64
-0023 -0064 -1511  0018  0063 -0013  0176 -0013  1028 -0457  0261  0183  2766 
$GPVTG,,T,,M,0.179,N,0.331,K,A*2D
$GPGGA,034717.30,1046.19391,N,10645.67025,E,1,06,1.72,-8.3,M,-2.2,M,,*60
-0022 -0061 -1510 -0013  0006 -0019  0096  0013  1035 -0466  0259  0181  2780 
$GPVTG,,T,,M,0.186,N,0.345,K,A*2E
$GPGGA,034717.40,1046.19386,N,10645.67029,E,1,06,1.72,-8.5,M,-2.2,M,,*6B
-0024 -0058 -1512  0024 -0052 -0065  0049 -0156  1095 -0466  0255  0178  2780 
$GPVTG,,T,,M,0.104,N,0.192,K,A*2C
$GPGGA,034717.50,1046.19387,N,10645.67029,E,1,06,1.72,-8.5,M,-2.2,M,,*6B
-0021 -0066 -1516  0050 -0023 -0009  0246  0146  1115 -0465  0256  0178  2766 
$GPVTG,,T,,M,0.048,N,0.089,K,A*2E
$GPGGA,034717.60,1046.19389,N,10645.67030,E,1,06,1.72,-8.3,M,-2.2,M,,*68
-0017 -0068 -1517 -0053  0033  0037  0153 -0039  0859 -0462  0257  0180  2766 
$GPVTG,,T,,M,0.189,N,0.350,K,A*25
$GPGGA,034717.70,1046.19387,N,10645.67030,E,1,06,1.72,-8.5,M,-2.2,M,,*61
-0024 -0070 -1515 -0048 -0093  0019  0169  0063  1168 -0461  0255  0179  2766 
$GPVTG,,T,,M,0.105,N,0.194,K,A*2B
$GPGGA,034717.80,1046.19387,N,10645.67033,E,1,06,1.72,-8.5,M,-2.2,M,,*6D
-0023 -0070 -1514  0113  0191 -0020  0109 -0186  0932 -0462  0256  0176  2766 
$GPVTG,,T,,M,0.114,N,0.212,K,A*26
$GPGGA,034717.90,1046.19382,N,10645.67036,E,1,06,1.72,-8.8,M,-2.2,M,,*61
-0022 -0067 -1513 -0108 -0119  0022  0023  0099  1208 -0461  0252  0175  2766 
$GPVTG,,T,,M,0.575,N,1.065,K,A*26
$GPGGA,034718.00,1046.19380,N,10645.67036,E,1,06,1.72,-8.9,M,-2.2,M,,*64
-0027 -0073 -1517  0027  0055 -0015  0213 -0169  0755 -0466  0251  0176  2766 
$GPVTG,290.74,T,,M,1.861,N,3.447,K,A*3F
$GPGGA,034718.10,1046.19382,N,10645.67029,E,1,06,1.72,-9.1,M,-2.2,M,,*60
-0029 -0075 -1525 -0006 -0013 -0054  0139  0426  1641 -0477  0237  0169  2752 
$GPVTG,296.76,T,,M,6.450,N,11.946,K,A*0D
$GPGGA,034718.30,1046.19399,N,10645.66994,E,1,05,2.24,-9.3,M,-2.2,M,,*67
-0051 -0077 -1532  0054 -0072 -0107  0123  0402  1608 -0481  0231  0165  2780 
$GPVTG,298.09,T,,M,9.397,N,17.403,K,A*02
$GPGGA,034718.40,1046.19413,N,10645.66962,E,1,05,2.99,-9.5,M,-2.2,M,,*6C
-0059 -0077 -1538 -0074  0029  0047  0159  0379  1102 -0486  0225  0162  2766 
$GPVTG,295.74,T,,M,9.798,N,18.145,K,A*06
$GPGGA,034718.50,1046.19396,N,10645.66950,E,1,05,2.99,-10.5,M,-2.2,M,,*5E
-0066 -0075 -1547 -0047 -0142 -0055  0276  0642  1408 -0498  0213  0154  2766 
$GPVTG,294.35,T,,M,8.342,N,15.449,K,A*04
$GPGGA,034718.60,1046.19386,N,10645.66950,E,1,06,1.72,-10.9,M,-2.2,M,,*55
-0073 -0079 -1565  0061 -0050 -0058  0123 -0033  1918 -0499  0197  0141  2766 
$GPVTG,292.12,T,,M,8.188,N,15.163,K,A*0E
$GPGGA,034718.70,1046.19390,N,10645.66931,E,1,06,1.72,-10.8,M,-2.2,M,,*55
-0093 -0069 -1576 -0057  0122  0038 -0266 -0972  0059 -0511  0174  0136  2766 
$GPVTG,291.50,T,,M,7.114,N,13.175,K,A*00
$GPGGA,034718.80,1046.19391,N,10645.66927,E,1,06,1.72,-10.7,M,-2.2,M,,*53
-0119 -0059 -1578  0181 -0141 -0031 -0149 -0636  1348 -0540  0168  0134  2780 
$GPVTG,291.28,T,,M,5.774,N,10.693,K,A*01
$GPGGA,034718.90,1046.19390,N,10645.66931,E,1,06,1.72,-10.4,M,-2.2,M,,*57
-0105 -0056 -1588 -0086  0095 -0003  0089  0915  0599 -0526  0179  0135  2780 
$GPVTG,291.72,T,,M,5.373,N,9.951,K,A*34
$GPGGA,034719.00,1046.19395,N,10645.66924,E,1,06,1.72,-10.3,M,-2.2,M,,*59
-0110 -0061 -1590 -0094  0114  0017  0046 -0056  0109 -0520  0181  0137  2780 
$GPVTG,291.74,T,,M,5.723,N,10.599,K,A*03
$GPGGA,034719.10,1046.19404,N,10645.66906,E,1,06,1.72,-10.2,M,-2.2,M,,*56
-0108 -0058 -1590 -0001  0025 -0020  0253  0849  0999 -0527  0178  0138  2766 
$GPVTG,292.94,T,,M,4.994,N,9.248,K,A*3E
$GPGGA,034719.20,1046.19410,N,10645.66904,E,1,06,1.72,-9.9,M,-2.2,M,,*61
-0113 -0059 -1588  0099  0061 -0028 -0143 -0389  1471 -0520  0182  0138  2780 
$GPVTG,294.19,T,,M,4.115,N,7.621,K,A*39
$GPGGA,034719.30,1046.19410,N,10645.66908,E,1,06,1.72,-9.8,M,-2.2,M,,*6D
-0122 -0055 -1586  0025 -0176 -0073  0436 -0009  1728 -0519  0178  0136  2766 
$GPVTG,297.10,T,,M,3.183,N,5.895,K,A*38
$GPGGA,034719.40,1046.19411,N,10645.66915,E,1,06,1.72,-9.7,M,-2.2,M,,*68
-0108 -0051 -1589  0046 -0056 -0061  0046 -0023  1711 -0516  0182  0136  2766 
$GPVTG,303.02,T,,M,1.792,N,3.320,K,A*30
$GPGGA,034719.50,1046.19406,N,10645.66937,E,1,06,1.72,-9.7,M,-2.2,M,,*6F
-0096 -0059 -1590 -0061  0149  0002  0479  0349  0782 -0520  0182  0137  2780 
$GPVTG,,T,,M,1.086,N,2.011,K,A*2E
$GPGGA,034719.60,1046.19395,N,10645.66961,E,1,06,1.72,-10.1,M,-2.2,M,,*5C
-0083 -0059 -1594  0001 -0089 -0034  0526  0576  1428 -0520  0178  0136  2780 
$GPVTG,,T,,M,0.900,N,1.667,K,A*2C
$GPGGA,034719.70,1046.19393,N,10645.66966,E,1,06,1.72,-10.1,M,-2.2,M,,*5C
-0072 -0061 -1593  0000 -0169 -0049  0253  0299  1588 -0524  0177  0137  2780 
$GPVTG,,T,,M,0.819,N,1.516,K,A*20
$GPGGA,034719.80,1046.19392,N,10645.66972,E,1,06,1.72,-10.0,M,-2.2,M,,*56
-0064 -0064 -1593  0026 -0110 -0047  0519  0586  1541 -0527  0180  0135  2780 
$GPVTG,,T,,M,0.971,N,1.798,K,A*2B
$GPGGA,034719.90,1046.19396,N,10645.66976,E,1,06,1.72,-10.0,M,-2.2,M,,*57
-0065 -0063 -1594  0047 -0128 -0055  0126  0143  1445 -0524  0180  0136  2766 
$GPVTG,,T,,M,0.892,N,1.652,K,A*20
$GPGGA,034720.00,1046.19393,N,10645.66983,E,1,06,1.72,-10.0,M,-2.2,M,,*5B
-0049 -0063 -1598  0039 -0072 -0056  0506  0832  1628 -0527  0180  0136  2780 
$GPVTG,18.67,T,,M,1.330,N,2.464,K,A*00
$GPGGA,034720.10,1046.19388,N,10645.66997,E,1,06,1.72,-9.9,M,-2.2,M,,*64
-0052 -0060 -1601  0063 -0113 -0057  0199  0126  1831 -0532  0178  0134  2766 
$GPVTG,,T,,M,0.835,N,1.546,K,A*2B
$GPGGA,034720.20,1046.19388,N,10645.66994,E,1,06,1.72,-10.0,M,-2.2,M,,*55
-0062 -0067 -1597  0026 -0033 -0070  0446  0989  1471 -0519  0180  0136  2780 
$GPVTG,73.53,T,,M,1.075,N,1.991,K,A*0C
$GPGGA,034720.30,1046.19383,N,10645.67001,E,1,06,1.72,-10.0,M,-2.2,M,,*5B
-0063 -0067 -1601 -0082  0062 -0020  0622  0869  0915 -0519  0180  0135  2780 
$GPVTG,,T,,M,0.853,N,1.580,K,A*21
$GPGGA,034720.40,1046.19387,N,10645.67001,E,1,06,1.72,-10.0,M,-2.2,M,,*58
-0081 -0066 -1597 -0020  0063 -0010 -0246 -0539  0725 -0521  0177  0136  2780 
$GPVTG,94.53,T,,M,0.883,N,1.635,K,A*04
$GPGGA,034720.50,1046.19384,N,10645.67005,E,1,06,1.72,-10.0,M,-2.2,M,,*5E
-0100 -0063 -1590 -0165  0099  0000  0013 -0522  0472 -0518  0175  0136  2766 
$GPVTG,,T,,M,0.673,N,1.246,K,A*20
$GPGGA,034720.60,1046.19385,N,10645.67005,E,1,06,1.72,-10.1,M,-2.2,M,,*5D
-0085 -0064 -1591 -0011  0005 -0024  0266  0656  1088 -0505  0187  0144  2780 
$GPVTG,,T,,M,0.369,N,0.683,K,A*22
$GPGGA,034720.70,1046.19385,N,10645.67002,E,1,06,1.72,-10.1,M,-2.2,M,,*5B
-0084 -0071 -1583 -0135  0056  0023  0576  0486  1038 -0486  0231  0166  2780 
$GPVTG,,T,,M,0.459,N,0.850,K,A*26
$GPGGA,034720.80,1046.19384,N,10645.67000,E,1,06,1.72,-10.1,M,-2.2,M,,*57
-0088 -0070 -1574 -0116  0012 -0004  0206  0349  1035 -0472  0251  0176  2780 
$GPVTG,,T,,M,0.443,N,0.820,K,A*2A
$GPGGA,034720.90,1046.19384,N,10645.66999,E,1,06,1.72,-10.1,M,-2.2,M,,*5E
-0093 -0072 -1569 -0178 -0143  0057  0296  0056  0932 -0468  0257  0182  2780 
$GPVTG,,T,,M,0.627,N,1.161,K,A*27
$GPGGA,034721.00,1046.19378,N,10645.67005,E,1,06,1.72,-10.1,M,-2.2,M,,*58
-0103 -0074 -1555  0123  0089 -0061 -0023 -0596  0542 -0467  0259  0181  2780 
$GPVTG,,T,,M,1.082,N,2.003,K,A*29
$GPGGA,034721.10,1046.19369,N,10645.67013,E,1,06,1.72,-10.1,M,-2.2,M,,*5E
-0108 -0075 -1544  0069 -0048 -0099  0113  0349  1841 -0467  0258  0182  2766 
$GPVTG,127.52,T,,M,1.581,N,2.927,K,A*3D
$GPGGA,034721.20,1046.19358,N,10645.67022,E,1,06,1.72,-10.2,M,-2.2,M,,*5E
-0103 -0079 -1541 -0122  0000  0049  0209  0609  1268 -0457  0260  0181  2780 
$GPVTG,138.79,T,,M,2.454,N,4.545,K,A*3E
$GPGGA,034721.30,1046.19342,N,10645.67040,E,1,06,1.72,-10.2,M,-2.2,M,,*50
-0094 -0076 -1532 -0103 -0056  0125  0099 -0206  0719 -0457  0258  0184  2780 
$GPVTG,136.01,T,,M,3.196,N,5.918,K,A*30
$GPGGA,034721.40,1046.19328,N,10645.67060,E,1,06,1.72,-10.3,M,-2.2,M,,*58
-0075 -0073 -1523  0135  0071 -0093  0116 -0076  1155 -0455  0261  0182  2780 
$GPVTG,133.83,T,,M,2.930,N,5.426,K,A*3A
$GPGGA,034721.50,1046.19327,N,10645.67065,E,1,06,1.72,-10.4,M,-2.2,M,,*54
-0057 -0069 -1517 -0062  0006  0007 -0013 -0136  1208 -0455  0262  0185  2780 
$GPVTG,130.78,T,,M,3.373,N,6.247,K,A*33
$GPGGA,034721.60,1046.19317,N,10645.67081,E,1,06,1.72,-10.4,M,-2.2,M,,*5E
-0049 -0066 -1514  0000 -0116 -0014  0133  0193  1062 -0455  0262  0184  2780 
$GPVTG,129.47,T,,M,3.474,N,6.433,K,A*32
$GPGGA,034721.70,1046.19309,N,10645.67091,E,1,06,1.72,-10.4,M,-2.2,M,,*51
-0040 -0067 -1515  0096  0105 -0025  0226 -0159  0855 -0463  0259  0182  2780 
$GPVTG,129.36,T,,M,3.326,N,6.160,K,A*37
$GPGGA,034721.80,1046.19305,N,10645.67098,E,1,06,1.72,-10.5,M,-2.2,M,,*5A
-0037 -0065 -1514 -0030 -0055 -0019  0219  0059  1138 -0464  0259  0182  2780 
$GPVTG,130.07,T,,M,3.017,N,5.588,K,A*3D
$GPGGA,034721.90,1046.19303,N,10645.67102,E,1,06,1.72,-10.4,M,-2.2,M,,*5E
-0035 -0065 -1514 -0008 -0007 -0013  0186  0209  1158 -0464  0261  0182  2780 
$GPVTG,131.67,T,,M,2.659,N,4.924,K,A*3C
$GPGGA,034722.00,1046.19301,N,10645.67104,E,1,06,1.72,-10.4,M,-2.2,M,,*50
-0034 -0065 -1514  0053  0014 -0130  0043 -0223  1058 -0463  0260  0182  2780 
$GPVTG,128.92,T,,M,1.946,N,3.604,K,A*36
$GPGGA,034722.10,1046.19312,N,10645.67104,E,1,06,1.72,-10.5,M,-2.2,M,,*52
-0028 -0064 -1515  0004  0013 -0074  0019 -0159  1108 -0464  0260  0181  2780 
$GPVTG,131.47,T,,M,1.723,N,3.192,K,A*33
$GPGGA,034722.20,1046.19310,N,10645.67105,E,1,06,1.72,-10.4,M,-2.2,M,,*53
-0027 -0062 -1513 -0034  0013 -0034  0116 -0319  1042 -0456  0262  0184  2780 
$GPVTG,132.68,T,,M,1.315,N,2.436,K,A*36
$GPGGA,034722.30,1046.19314,N,10645.67104,E,1,06,1.72,-10.3,M,-2.2,M,,*50
-0026 -0063 -1512  0003  0027 -0025  0236 -0146  1108 -0455  0261  0181  2780 
$GPVTG,139.79,T,,M,1.809,N,3.350,K,A*3D
$GPGGA,034722.40,1046.19303,N,10645.67114,E,1,06,1.72,-10.2,M,-2.2,M,,*51
-0025 -0063 -1511  0027 -0012  0014  0189  0133  1335 -0455  0260  0182  2780 
$GPVTG,138.49,T,,M,1.421,N,2.632,K,A*39
$GPGGA,034722.50,1046.19308,N,10645.67115,E,1,06,1.72,-10.0,M,-2.2,M,,*58
-0027 -0063 -1510 -0016  0010 -0034  0093 -0176  0732 -0456  0260  0181  2794 
$GPVTG,135.47,T,,M,1.499,N,2.777,K,A*39
$GPGGA,034722.60,1046.19306,N,10645.67122,E,1,06,1.72,-9.9,M,-2.2,M,,*60
-0028 -0061 -1509  0003 -0006 -0023  0093 -0143  0885 -0455  0259  0180  2780 
$GPVTG,135.68,T,,M,1.459,N,2.702,K,A*3A
$GPGGA,034722.70,1046.19303,N,10645.67125,E,1,06,1.72,-9.9,M,-2.2,M,,*63
-0028 -0061 -1509 -0055 -0004 -0045  0146  0016  1162 -0463  0262  0183  2780 
$GPVTG,,T,,M,0.982,N,1.819,K,A*21
$GPGGA,034722.80,1046.19312,N,10645.67122,E,1,06,1.72,-9.4,M,-2.2,M,,*66
-0024 -0061 -1512  0042  0001 -0050  0083 -0036  0909 -0465  0260  0183  2794 
$GPVTG,,T,,M,0.656,N,1.216,K,A*22
$GPGGA,034722.90,1046.19317,N,10645.67123,E,1,06,1.72,-9.2,M,-2.2,M,,*65
-0023 -0061 -1513 -0053  0000  0007  0099 -0053  1015 -0464  0260  0184  2794 
$GPVTG,,T,,M,0.331,N,0.613,K,A*26
$GPGGA,034723.00,1046.19325,N,10645.67123,E,1,06,1.72,-8.8,M,-2.2,M,,*67
-0024 -0061 -1513 -0037  0030 -0024  0093 -0069  0975 -0464  0259  0185  2780 
$GPVTG,,T,,M,0.078,N,0.144,K,A*2D
$GPGGA,034723.10,1046.19331,N,10645.67124,E,1,06,1.72,-8.6,M,-2.2,M,,*6A
-0023 -0061 -1513  0002  0008 -0008  0106 -0046  0912 -0463  0260  0185  2780 
$GPVTG,,T,,M,0.284,N,0.525,K,A*2F
$GPGGA,034723.20,1046.19325,N,10645.67131,E,1,06,1.72,-8.7,M,-2.2,M,,*69
-0023 -0061 -1512  0018 -0002 -0012  0116 -0006  0962 -0454  0262  0180  2780 
$GPVTG,,T,,M,0.729,N,1.351,K,A*29
$GPGGA,034723.30,1046.19316,N,10645.67141,E,1,06,1.72,-8.7,M,-2.2,M,,*6F
-0023 -0060 -1511 -0002 -0013 -0019  0106 -0053  1098 -0456  0262  0179  2780 
$GPVTG,,T,,M,0.299,N,0.554,K,A*25
$GPGGA,034723.40,1046.19323,N,10645.67141,E,1,06,1.72,-8.6,M,-2.2,M,,*6F
-0022 -0059 -1511 -0023  0006 -0019  0106 -0079  1075 -0454  0262  0181  2780 
$GPVTG,,T,,M,0.141,N,0.262,K,A*21
$GPGGA,034723.50,1046.19327,N,10645.67145,E,1,06,1.72,-8.4,M,-2.2,M,,*6C
-0024 -0061 -1510  0000  0000 -0049  0116 -0003  0975 -0456  0260  0184  2780 
$GPVTG,,T,,M,0.143,N,0.266,K,A*27
$GPGGA,034723.60,1046.19328,N,10645.67151,E,1,06,1.72,-8.2,M,-2.2,M,,*63
-0017 -0064 -1512  0056 -0003  0028  0129 -0066  1058 -0456  0259  0183  2780 
$GPVTG,,T,,M,0.036,N,0.067,K,A*27
$GPGGA,034723.70,1046.19330,N,10645.67153,E,1,06,1.72,-8.2,M,-2.2,M,,*69
-0019 -0061 -1507 -0048  0000  0027  0073 -0039  1038 -0464  0264  0180  2794 
$GPVTG,,T,,M,0.178,N,0.330,K,A*2D
$GPGGA,034723.80,1046.19326,N,10645.67157,E,1,06,1.72,-8.3,M,-2.2,M,,*64
-0025 -0057 -1508 -0064 -0001 -0075  0096 -0049  1022 -0463  0263  0182  2794 
$GPVTG,,T,,M,0.097,N,0.179,K,A*22
$GPGGA,034723.90,1046.19328,N,10645.67161,E,1,06,1.72,-8.2,M,-2.2,M,,*6F
-0025 -0061 -1511  0071 -0002 -0085  0133 -0066  1035 -0464  0260  0182  2780 
$GPVTG,,T,,M,0.102,N,0.188,K,A*21
$GPGGA,034724.00,1046.19330,N,10645.67165,E,1,06,1.72,-8.2,M,-2.2,M,,*6C
-0021 -0063 -1514 -0006 -0006 -0013  0123 -0043  1018 -0463  0260  0183  2780 
$GPVTG,,T,,M,0.087,N,0.161,K,A*2A
$GPGGA,034724.10,1046.19331,N,10645.67169,E,1,06,1.72,-8.0,M,-2.2,M,,*62
-0020 -0065 -1513  0001  0012  0093  0109 -0049  1012 -0463  0260  0183  2794 
$GPVTG,,T,,M,0.017,N,0.031,K,A*27
$GPGGA,034724.20,1046.19331,N,10645.67172,E,1,06,1.72,-8.0,M,-2.2,M,,*6B
-0023 -0057 -1506 -0032  0013 -0032  0066 -0073  1048 -0454  0263  0180  2780 
$GPVTG,,T,,M,0.097,N,0.180,K,A*24
$GPGGA,034724.30,1046.19330,N,10645.67176,E,1,06,1.72,-8.1,M,-2.2,M,,*6E
-0028 -0056 -1509 -0016 -0021 -0127  0123 -0073  1025 -0455  0262  0183  2794 
$GPVTG,,T,,M,0.075,N,0.139,K,A*2A
$GPGGA,034724.40,1046.19330,N,10645.67180,E,1,06,1.72,-7.9,M,-2.2,M,,*67
-0023 -0062 -1513  0066  0001 -0026  0123 -0056  1042 -0455  0259  0182  2780 
$GPVTG,,T,,M,0.020,N,0.038,K,A*2A
$GPGGA,034724.50,1046.19331,N,10645.67183,E,1,06,1.72,-7.8,M,-2.2,M,,*650454  0259  0183  2794 
$GPVTG,,T,,M,0.054,N,0.101,K,A*22
$GPGGA,034724.60,1046.19332,N,10645.67186,E,1,06,1.72,-7.7,M,-2.2,M,,*6F0460  0262  0181  2780 
$GPVTG,,T,,M,0.035,N,0.065,K,A*
-0022 -0058 -1508 -0008 -0001 -0046  0086 -0029  1045 -0463  0262  0179  2780 
$GPVTG,,T,,M,0.020,N,0.037,K,A*25
$GPGGA,034724.90,1046.19332,N,10645.67191,E,1,06,1.72,-7.6,M,-2.2,M,,*67
-0026 -0060 -1511 -0089 -0001 -0064  0163 -0029  1045 -0465  0262  0179  2780 
$GPVTG,,T,,M,0.003,N,0.006,K,A*26
$GPGGA,034725.00,1046.19332,N,10645.67193,E,1,06,1.72,-7.6,M,-2.2,M,,*6D
-0025 -0062 -1512  0068 -0013 -0007  0096 -0049  1048 -0464  0260  0179  2780 
$GPVTG,,T,,M,0.129,N,0.239,K,A*21
$GPGGA,034725.10,1046.19332,N,10645.67196,E,1,06,1.72,-7.6,M,-2.2,M,,*69
-0021 -0063 -1513  0013  0025 -0006  0153 -0036  1035 -0462  0260  0180  2794 
$GPVTG,,T,,M,0.072,N,0.133,K,A*27
$GPGGA,034725.20,1046.19332,N,10645.67198,E,1,06,1.72,-7.5,M,-2.2,M,,*67
-0020 -0064 -1510  0000 -0007  0065  0096 -0033  1058 -0454  0261  0181  2766 
$GPVTG,,T,,M,0.050,N,0.093,K,A*2C
$GPGGA,034725.30,1046.19333,N,10645.67200,E,1,06,1.72,-7.5,M,-2.2,M,,*65
-0025 -0057 -1506 -0069  0006 -0032  0109 -0043  1035 -0452  0261  0183  2780 
$GPVTG,,T,,M,0.102,N,0.189,K,A*20
$GPGGA,034725.40,1046.19333,N,10645.67204,E,1,06,1.72,-7.5,M,-2.2,M,,*66
-0026 -0059 -1506  0061  0000 -0022  0103 -0063  1058 -0454  0263  0181  2780 
$GPVTG,,T,,M,0.035,N,0.065,K,A*26
$GPGGA,034725.50,1046.19333,N,10645.67206,E,1,06,1.72,-7.4,M,-2.2,M,,*64
-0024 -0058 -1510 -0055 -0002 -0094  0156 -0026  1042 -0457  0261  0180  2794 
$GPVTG,,T,,M,0.043,N,0.079,K,A*2A
$GPGGA,034725.60,1046.19334,N,10645.67208,E,1,06,1.72,-7.3,M,-2.2,M,,*69
-0024 -0063 -1511  0019  0004  0019  0103 -0029  1035 -0457  0259  0182  2794 
$GPVTG,,T,,M,0.078,N,0.144,K,A*2D
$GPGGA,034725.70,1046.19333,N,10645.67210,E,1,06,1.72,-7.3,M,-2.2,M,,*66
-0024 -0059 -1510 -0026  0007 -0043  0129 -0046  1038 -0464  0263  0179  2794 
$GPVTG,,T,,M,0.111,N,0.205,K,A*25
$GPGGA,034725.80,1046.19333,N,10645.67212,E,1,06,1.72,-7.2,M,-2.2,M,,*6A
-0024 -0061 -1511  0021 -0011 -0017  0079 -0049  1032 -0462  0259  0183  2766 
$GPVTG,,T,,M,0.124,N,0.229,K,A*2D
$GPGGA,034725.90,1046.19333,N,10645.67214,E,1,06,1.72,-7.2,M,-2.2,M,,*6D
-0023 -0062 -1511 -0008  0003 -0005  0123 -0053  1048 -0463  0262  0181  2780 
$GPVTG,,T,,M,0.023,N,0.043,K,A*25
$GPGGA,034726.00,1046.19335,N,10645.67214,E,1,06,1.72,-7.0,M,-2.2,M,,*63
-0024 -0060 -1510 -0018  0015 -0018  0113 -0043  1042 -0464  0261  0182  2794 
$GPVTG,,T,,M,0.117,N,0.217,K,A*20
$GPGGA,034726.10,1046.19336,N,10645.67215,E,1,06,1.72,-7.0,M,-2.2,M,,*60
-0025 -0061 -1510  0012  0013 -0019  0106 -0049  1028 -0464  0262  0180  2794 
$GPVTG,,T,,M,0.058,N,0.107,K,A*28
$GPGGA,034726.20,1046.19337,N,10645.67216,E,1,06,1.72,-6.8,M,-2.2,M,,*68
-0024 -0059 -1510 -0022 -0003 -0018  0103 -0046  1045 -0456  0261  0180  2794 
$GPVTG,,T,,M,0.061,N,0.112,K,A*26
$GPGGA,034726.30,1046.19337,N,10645.67217,E,1,06,1.72,-6.8,M,-2.2,M,,*68
-0025 -0062 -1511  0005  0015 -0024  0129 -0046  1028 -0456  0259  0182  2780 
$GPVTG,,T,,M,0.131,N,0.242,K,A*24
$GPGGA,034726.40,1046.19338,N,10645.67219,E,1,06,1.72,-6.8,M,-2.2,M,,*6E
-0025 -0059 -1509 -0027  0003 -0018  0096 -0049  1022 -0455  0260  0183  2780 
$GPVTG,,T,,M,0.101,N,0.188,K,A*22
$GPGGA,034726.50,1046.19338,N,10645.67221,E,1,06,1.72,-6.8,M,-2.2,M,,*64
-0024 -0064 -1510  0018  0013 -0004  0126 -0049  1022 -0457  0260  0183  2780 
$GPVTG,,T,,M,0.063,N,0.116,K,A*20
$GPGGA,034726.60,1046.19337,N,10645.67223,E,1,06,1.72,-6.8,M,-2.2,M,,*6A
-0023 -0059 -1508 -0026  0000 -0001  0099 -0049  1038 -0456  0261  0182  2794 
$GPVTG,,T,,M,0.116,N,0.214,K,A*22
$GPGGA,034726.70,1046.19339,N,10645.67224,E,1,06,1.72,-6.6,M,-2.2,M,,*6C
-0025 -0061 -1509  0005  0013 -0021  0116 -0036  1055 -0463  0262  0179  2766 
$GPVTG,,T,,M,0.060,N,0.111,K,A*24
$GPGGA,034726.80,1046.19339,N,10645.67226,E,1,06,1.72,-6.6,M,-2.2,M,,*61
-0024 -0059 -1510 -0007 -0005 -0043  0116 -0033  1035 -0464  0263  0179  2794 
$GPVTG,,T,,M,0.113,N,0.209,K,A*2B
$GPGGA,034726.90,1046.19339,N,10645.67228,E,1,06,1.72,-6.4,M,-2.2,M,,*6C
-0023 -0063 -1512 -0002  0000 -0004  0093 -0039  1042 -0464  0262  0180  2794 
$GPVTG,,T,,M,0.057,N,0.106,K,A*26
$GPGGA,034727.00,1046.19337,N,10645.67230,E,1,06,1.72,-6.5,M,-2.2,M,,*62
-0024 -0062 -1511 -0013  0004 -0012  0163 -0046  1025 -0462  0259  0181  2794 
$GPVTG,,T,,M,0.156,N,0.289,K,A*22
$GPGGA,034727.10,1046.19338,N,10645.67232,E,1,06,1.72,-6.5,M,-2.2,M,,*6E
-0022 -0061 -1511  0039 -0006 -0006  0076 -0036  1015 -0464  0261  0179  2794 
$GPVTG,,T,,M,0.074,N,0.138,K,A*2A
$GPGGA,034727.20,1046.19336,N,10645.67235,E,1,06,1.72,-6.4,M,-2.2,M,,*65
-0021 -0060 -1511 -0003  0011 -0042  0136 -0046  1015 -0456  0261  0179  2780 
$GPVTG,,T,,M,0.096,N,0.179,K,A*23
$GPGGA,034727.30,1046.19337,N,10645.67237,E,1,06,1.72,-6.4,M,-2.2,M,,*67
-0022 -0059 -1511 -0039  0006 -0018  0093 -0043  1032 -0455  0260  0183  2794 
$GPVTG,,T,,M,0.143,N,0.265,K,A*24
$GPGGA,034727.40,1046.19338,N,10645.67239,E,1,06,1.72,-6.3,M,-2.2,M,,*66
-0024 -0063 -1511 -0005  0006 -0009  0129 -0053  1038 -0456  0261  0181  2780 
$GPVTG,,T,,M,0.055,N,0.102,K,A*20
$GPGGA,034727.50,1046.19336,N,10645.67243,E,1,06,1.72,-6.3,M,-2.2,M,,*64
-0025 -0059 -1510 -0015 -0006 -0013  0099 -0059  1025 -0456  0258  0184  2794 
$GPVTG,,T,,M,0.217,N,0.402,K,A*21
$GPGGA,034727.60,1046.19337,N,10645.67243,E,1,06,1.72,-6.2,M,-2.2,M,,*67
-0024 -0062 -1510  0005  0004  0017  0086 -0023  1035 -0456  0261  0182  2794 
$GPVTG,,T,,M,0.099,N,0.183,K,A*29
$GPGGA,034727.70,1046.19336,N,10645.67247,E,1,06,1.72,-6.3,M,-2.2,M,,*62
-0025 -0058 -1508 -0046  0000 -0010  0123 -0053  1042 -0463  0262  0184  2780 
$GPVTG,,T,,M,0.088,N,0.163,K,A*27
$GPGGA,034727.80,1046.19335,N,10645.67249,E,1,06,1.72,-6.2,M,-2.2,M,,*61
-0025 -0059 -1509  0040 -0002 -0016  0089 -0043  1045 -0463  0263  0182  2794 
$GPVTG,,T,,M,0.182,N,0.336,K,A*2E
$GPGGA,034727.90,1046.19336,N,10645.67251,E,1,06,1.72,-6.1,M,-2.2,M,,*69
-0022 -0060 -1510  0002 -0003 -0027  0136 -0023  1042 -0464  0262  0183  2808 
$GPVTG,,T,,M,0.085,N,0.157,K,A*2D
$GPGGA,034728.00,1046.19334,N,10645.67254,E,1,06,1.72,-6.0,M,-2.2,M,,*69
-0021 -0061 -1511 -0026 -0004  0002  0099 -0039  1042 -0464  0262  0183  2794 
$GPVTG,,T,,M,0.149,N,0.276,K,A*2C
$GPGGA,034728.10,1046.19335,N,10645.67256,E,1,06,1.72,-6.0,M,-2.2,M,,*6B
-0023 -0059 -1510 -0005  0006 -0023  0119 -0049  1035 -0464  0262  0182  2794 
$GPVTG,,T,,M,0.145,N,0.268,K,A*2F
$GPGGA,034728.20,1046.19334,N,10645.67257,E,1,06,1.72,-5.9,M,-2.2,M,,*62
-0021 -0060 -1511  0027 -0008 -0035  0099 -0036  1038 -0457  0261  0182  2794 
$GPVTG,,T,,M,0.054,N,0.100,K,A*23
$GPGGA,034728.30,1046.19334,N,10645.67260,E,1,06,1.72,-5.8,M,-2.2,M,,*66
-0020 -0059 -1511 -0034 -0011 -0006  0089 -0043  1025 -0458  0260  0181  2780 
$GPVTG,,T,,M,0.132,N,0.245,K,A*20
$GPGGA,034728.40,1046.19333,N,10645.67262,E,1,06,1.72,-5.8,M,-2.2,M,,*64
-0023 -0062 -1511 -0006  0002 -0021  0139 -0046  1028 -0455  0260  0185  2794 
$GPVTG,,T,,M,0.224,N,0.415,K,A*27
$GPGGA,034728.50,1046.19334,N,10645.67263,E,1,06,1.72,-5.8,M,-2.2,M,,*63
-0022 -0061 -1510  0009  0004 -0025  0103 -0036  1042 -0457  0260  0182  2794 
$GPVTG,,T,,M,0.100,N,0.185,K,A*2E
$GPGGA,034728.60,1046.19331,N,10645.67266,E,1,06,1.72,-5.7,M,-2.2,M,,*6F
-0023 -0061 -1510 -0024  0008 -0015  0119 -0043  1028 -0457  0260  0182  2808 
$GPVTG,,T,,M,0.019,N,0.035,K,A*2D
$GPGGA,034728.70,1046.19330,N,10645.67268,E,1,06,1.72,-5.6,M,-2.2,M,,*60
-0023 -0058 -1509 -0002  0001 -0004  0096 -0046  1038 -0461  0261  0183  2794 
$GPVTG,,T,,M,0.184,N,0.341,K,A*28
$GPGGA,034728.80,1046.19330,N,10645.67269,E,1,06,1.72,-5.5,M,-2.2,M,,*6D
-0023 -0060 -1509  0014  0000 -0022  0123 -0029  1028 -0463  0262  0182  2780 
$GPVTG,,T,,M,0.242,N,0.447,K,A*20
$GPGGA,034728.90,1046.19329,N,10645.67270,E,1,06,1.72,-5.5,M,-2.2,M,,*6C
-0022 -0060 -1510 -0024  0004 -0020  0113 -0036  1035 -0465  0263  0180  2794 
$GPVTG,,T,,M,0.188,N,0.349,K,A*2C
$GPGGA,034729.00,1046.19326,N,10645.67273,E,1,06,1.72,-5.4,M,-2.2,M,,*69
-0022 -0061 -1511  0003  0006 -0035  0103 -0033  1038 -0461  0261  0183  2794 
$GPVTG,,T,,M,0.277,N,0.513,K,A*26
$GPGGA,034729.10,1046.19327,N,10645.67274,E,1,06,1.72,-5.3,M,-2.2,M,,*69
-0021 -0062 -1512 -0021  0009 -0019  0099 -0036  1038 -0455  0260  0183  2794 
$GPVTG,,T,,M,0.170,N,0.315,K,A*22
$GPGGA,034729.30,1046.19328,N,10645.67278,E,1,06,1.72,-5.1,M,-2.2,M,,*6A
-0022 -0061 -1511 -0008 -0017 -0020  0113 -0046  1028 -0456  0261  0182  2794 
$GPVTG,,T,,M,0.287,N,0.532,K,A*2A
$GPGGA,034729.40,1046.19330,N,10645.67278,E,1,06,1.72,-5.0,M,-2.2,M,,*65
-0022 -0061 -1510  0002  0002 -0021  0109 -0039  1035 -0457  0261  0182  2794 
$GPVTG,,T,,M,0.155,N,0.287,K,A*2F
$GPGGA,034729.50,1046.19330,N,10645.67281,E,1,06,1.73,-4.9,M,-2.2,M,,*6B
-0023 -0060 -1510 -0005  0013 -0023  0106 -0046  1038 -0454  0261  0184  2794 
$GPVTG,,T,,M,0.145,N,0.269,K,A*2E
$GPGGA,034729.60,1046.19331,N,10645.67281,E,1,06,1.73,-4.9,M,-2.2,M,,*69
-0023 -0060 -1509  0002  0000 -0020  0109 -0029  1038 -0455  0261  0182  2794 
$GPVTG,,T,,M,0.239,N,0.443,K,A*28
$GPGGA,034729.70,1046.19332,N,10645.67281,E,1,06,1.73,-4.8,M,-2.2,M,,*6A0462  0261  0181  2794 
$GPVTG,,T,,M,0.087,N,0.162,K,A*29
$GPGGA,034729.80,1046.19333,N,10645.67284,E,1,06,1.73,-4.8,M,-2.2,M,,*61
-0023 -0061 -1510 -0022  0014 -0007  0119 -0036  1038 -0462  0262  0181  2808 
$GPVTG,,T,,M,0.158,N,0.293,K,A*27
$GPGGA,034729.90,1046.19335,N,10645.67283,E,1,06,1.73,-4.7,M,-2.2,M,,*6E
-0023 -0060 -1510  0001 -0009 -0023  0109 -0039  1038 -0461  0262  0182  2808 
$GPVTG,,T,,M,0.182,N,0.337,K,A*2F
$GPGGA,034730.00,1046.19338,N,10645.67284,E,1,06,1.73,-4.6,M,-2.2,M,,*64
-0021 -0061 -1511 -0008 -0003 -0031  0119 -0043  1038 -0463  0262  0179  2794 
$GPVTG,,T,,M,0.069,N,0.128,K,A*27
$GPGGA,034730.10,1046.19339,N,10645.67285,E,1,06,1.73,-4.6,M,-2.2,M,,*65
-0021 -0061 -1512 -0020 -0005 -0019  0109 -0036  1035 -0463  0264  0181  2794 
$GPVTG,,T,,M,0.110,N,0.203,K,A*22
$GPGGA,034730.20,1046.19342,N,10645.67285,E,1,06,1.73,-4.6,M,-2.2,M,,*6A
-0022 -0060 -1511  0000 -0009 -0018  0109 -0046  1032 -0457  0261  0182  2794 
$GPVTG,,T,,M,0.102,N,0.190,K,A*28
$GPGGA,034730.30,1046.19344,N,10645.67285,E,1,06,1.73,-4.5,M,-2.2,M,,*6E
-0021 -0059 -1511 -0001  0006 -0026  0109 -0039  1035 -0455  0260  0183  2794 
$GPVTG,,T,,M,0.109,N,0.203,K,A*2A
$GPGGA,034730.40,1046.19347,N,10645.67284,E,1,06,1.73,-4.4,M,-2.2,M,,*6A
-0021 -0060 -1510  0003  0005 -0001  0119 -0046  1042 -0457  0261  0182  2794 
$GPVTG,,T,,M,0.121,N,0.224,K,A*25
$GPGGA,034730.50,1046.19348,N,10645.67283,E,1,06,1.73,-4.4,M,-2.2,M,,*63
-0023 -0059 -1509 -0040  0004 -0020  0099 -0046  1028 -0455  0262  0181  2794 
$GPVTG,,T,,M,0.105,N,0.195,K,A*2A
$GPGGA,034730.60,1046.19349,N,10645.67284,E,1,06,1.73,-4.4,M,-2.2,M,,*66
-0024 -0060 -1508  0014  0002 -0024  0103 -0036  1022 -0456  0261  0183  2808 
$GPVTG,,T,,M,0.041,N,0.077,K,A*26
$GPGGA,034730.70,1046.19350,N,10645.67284,E,1,06,1.73,-4.4,M,-2.2,M,,*6F
-0023 -0059 -1509  0016  0000 -0041  0099 -0043  1025 -0456  0261  0182  2794 
$GPVTG,,T,,M,0.063,N,0.116,K,A*20
$GPGGA,034730.80,1046.19351,N,10645.67286,E,1,06,1.73,-4.4,M,-2.2,M,,*63
-0021 -0060 -1509 -0001  0008 -0015  0126 -0039  1035 -0457  0262  0184  2794 
$GPVTG,,T,,M,0.125,N,0.232,K,A*26
$GPGGA,034730.90,1046.19353,N,10645.67287,E,1,06,1.73,-4.4,M,-2.2,M,,*61
-0021 -0060 -1509 -0005  0004 -0015  0106 -0036  1035 -0459  0262  0183  2794 
$GPVTG,,T,,M,0.464,N,0.860,K,A*2B
$GPGGA,034731.00,1046.19356,N,10645.67284,E,1,06,1.73,-4.4,M,-2.2,M,,*6F
-0021 -0061 -1509 -0018  0012 -0012  0116 -0043  1042 -0459  0262  0182  2808 
$GPVTG,,T,,M,0.495,N,0.917,K,A*24
$GPGGA,034731.10,1046.19358,N,10645.67287,E,1,06,1.73,-4.3,M,-2.2,M,,*64
-0022 -0060 -1509  0020  0003 -0025  0113 -0039  1042 -0460  0264  0181  2794 
$GPVTG,,T,,M,0.238,N,0.440,K,A*2A
$GPGGA,034731.20,1046.19359,N,10645.67287,E,1,06,1.73,-4.3,M,-2.2,M,,*66
-0022 -0061 -1508 -0030  0002  0013  0113 -0043  1032 -0460  0264  0183  2794 
$GPVTG,,T,,M,0.493,N,0.913,K,A*26
$GPGGA,034731.40,1046.19365,N,10645.67288,E,1,06,1.73,-4.1,M,-2.2,M,,*62
-0024 -0059 -1508  0013  0000 -0040  0096 -0049  1032 -0460  0264  0183  2794 
$GPVTG,,T,,M,0.673,N,1.247,K,A*21
$GPGGA,034731.50,1046.19371,N,10645.67289,E,1,06,1.73,-4.0,M,-2.2,M,,*66
-0022 -0059 -1509  0017 -0001 -0017  0116 -0029  1038 -0461  0264  0181  2808 
$GPVTG,77.00,T,,M,0.844,N,1.563,K,A*04
$GPGGA,034731.60,1046.19378,N,10645.67288,E,1,06,1.73,-3.9,M,-2.2,M,,*63
-0023 -0059 -1509 -0067 -0020 -0004  0106 -0046  1035 -0460  0263  0182  2794 
$GPVTG,32.61,T,,M,0.946,N,1.751,K,A*02
$GPGGA,034731.70,1046.19379,N,10645.67289,E,1,06,1.73,-3.8,M,-2.2,M,,*63
-0026 -0061 -1509 -0003  0020 -0025  0119 -0049  1025 -0459  0262  0185  2808 
$GPVTG,7.69,T,,M,1.236,N,2.288,K,A*33
$GPGGA,034731.80,1046.19382,N,10645.67289,E,1,06,1.73,-3.8,M,-2.2,M,,*68
-0024 -0060 -1509  0012 -0002 -0004  0079 -0046  1068 -0459  0262  0182  2794 
$GPVTG,359.86,T,,M,0.928,N,1.719,K,A*31
$GPGGA,034731.90,1046.19385,N,10645.67289,E,1,06,1.73,-3.7,M,-2.2,M,,*61
-0024 -0061 -1509 -0027  0011 -0031  0143 -0043  1042 -0459  0262  0182  2794 
$GPVTG,357.18,T,,M,0.698,N,1.292,K,A*3A
$GPGGA,034732.00,1046.19386,N,10645.67290,E,1,06,1.73,-3.7,M,-2.2,M,,*60
-0024 -0059 -1509 -0003 -0013 -0009  0083 -0046  1045 -0459  0262  0181  2808 
$GPVTG,,T,,M,0.621,N,1.149,K,A*2B
$GPGGA,034732.10,1046.19388,N,10645.67291,E,1,06,1.73,-3.7,M,-2.2,M,,*6E
-0025 -0060 -1509  0008 -0013 -0061  0136 -0049  1032 -0459  0262  0180  2794 
$GPVTG,,T,,M,0.567,N,1.050,K,A*23
$GPGGA,034732.20,1046.19391,N,10645.67291,E,1,06,1.73,-3.6,M,-2.2,M,,*64
-0023 -0063 -1510  0027  0006 -0007  0093 -0039  1028 -0459  0263  0179  2794 
$GPVTG,,T,,M,0.337,N,0.624,K,A*24
$GPGGA,034732.30,1046.19391,N,10645.67290,E,1,06,1.73,-3.6,M,-2.2,M,,*64
-0023 -0061 -1510 -0031  0002 -0028  0133 -0049  1032 -0461  0263  0182  2780 
$GPVTG,,T,,M,0.355,N,0.657,K,A*24
$GPGGA,034732.40,1046.19394,N,10645.67291,E,1,06,1.73,-3.5,M,-2.2,M,,*64
-0022 -0064 -1510  0057  0010  0032  0099 -0039  1008 -0460  0262  0183  2794 
$GPVTG,,T,,M,0.294,N,0.544,K,A*29
$GPGGA,034732.50,1046.19394,N,10645.67292,E,1,06,1.73,-3.4,M,-2.2,M,,*67
-0021 -0059 -1506 -0048 -0001 -0007  0083 -0039  1035 -0462  0266  0179  2794 
$GPVTG,,T,,M,0.234,N,0.434,K,A*25
$GPGGA,034732.60,1046.19396,N,10645.67292,E,1,06,1.73,-3.4,M,-2.2,M,,*66
-0025 -0057 -1507 -0060 -0006 -0065  0093 -0053  1042 -0461  0264  0181  2794 
$GPVTG,,T,,M,0.133,N,0.246,K,A*22
$GPGGA,034732.70,1046.19398,N,10645.67292,E,1,06,1.73,-3.3,M,-2.2,M,,*6E
-0025 -0060 -1510  0056  0000 -0064  0149 -0043  1028 -0462  0263  0180  2794 
$GPVTG,,T,,M,0.260,N,0.481,K,A*2A
$GPGGA,034732.80,1046.19403,N,10645.67291,E,1,06,1.73,-3.2,M,-2.2,M,,*66
-0021 -0061 -1511 -0012  0004 -0001  0103 -0023  1045 -0455  0260  0182  2794 
$GPVTG,,T,,M,0.143,N,0.265,K,A*24
$GPGGA,034732.90,1046.19401,N,10645.67293,E,1,06,1.73,-3.1,M,-2.2,M,,*64
-0022 -0064 -1509  0014  0011  0076  0126 -0053  1035 -0456  0261  0182  2808 
$GPVTG,,T,,M,0.238,N,0.441,K,A*2B
$GPGGA,034733.00,1046.19406,N,10645.67292,E,1,06,1.73,-2.9,M,-2.2,M,,*63
-0023 -0057 -1504 -0033  0006 -0029  0073 -0056  1042 -0450  0262  0183  2808 
$GPVTG,,T,,M,0.153,N,0.284,K,A*2A
$GPGGA,034733.10,1046.19406,N,10645.67293,E,1,06,1.73,-2.9,M,-2.2,M,,*63
-0024 -0059 -1506  0041  0000 -0037  0143 -0049  1028 -0453  0262  0183  2808 
$GPVTG,,T,,M,0.213,N,0.395,K,A*2C
$GPGGA,034733.20,1046.19409,N,10645.67293,E,1,06,1.73,-2.8,M,-2.2,M,,*6E
-0021 -0056 -1506 -0055 -0002 -0047  0059 -0033  1018 -0455  0264  0180  2808 
$GPVTG,,T,,M,0.011,N,0.020,K,A*21
$GPGGA,034733.30,1046.19409,N,10645.67293,E,1,06,1.73,-2.8,M,-2.2,M,,*6F
-0026 -0060 -1510 -0019  0020 -0061  0159 -0043  1032 -0462  0261  0183  2794 
$GPVTG,,T,,M,0.100,N,0.186,K,A*2D
$GPGGA,034733.40,1046.19410,N,10645.67293,E,1,06,1.73,-2.7,M,-2.2,M,,*6F
-0023 -0059 -1510  0042 -0007 -0003  0066 -0033  1035 -0462  0263  0180  2794 
$GPVTG,,T,,M,0.159,N,0.294,K,A*21
$GPGGA,034733.50,1046.19412,N,10645.67293,E,1,06,1.73,-2.6,M,-2.2,M,,*6D
-0023 -0061 -1511 -0055  0014 -0027  0153 -0046  1032 -0463  0262  0181  2808 
$GPVTG,,T,,M,0.078,N,0.144,K,A*2D
$GPGGA,034733.60,1046.19412,N,10645.67293,E,1,06,1.73,-2.6,M,-2.2,M,,*6E
-0025 -0059 -1510  0010  0014  0004  0059 -0059  1038 -0462  0263  0183  2808 
$GPVTG,,T,,M,0.132,N,0.245,K,A*20
$GPGGA,034733.70,1046.19414,N,10645.67292,E,1,06,1.73,-2.5,M,-2.2,M,,*6B
-0025 -0059 -1510  0020  0000 -0039  0139 -0046  1035 -0462  0262  0182  2794 
$GPVTG,,T,,M,0.153,N,0.284,K,A*2A
$GPGGA,034733.80,1046.19414,N,10645.67292,E,1,06,1.73,-2.5,M,-2.2,M,,*64
-0023 -0059 -1510  0000  0005  0000  0103 -0033  1045 -0457  0261  0181  2808 
$GPVTG,,T,,M,0.112,N,0.207,K,A*24
$GPGGA,034733.90,1046.19416,N,10645.67292,E,1,06,1.73,-2.5,M,-2.2,M,,*67
-0024 -0062 -1510 -0020  0013 -0007  0136 -0049  1052 -0459  0262  0182  2808 
$GPVTG,,T,,M,0.167,N,0.309,K,A*29
$GPGGA,034734.00,1046.19418,N,10645.67292,E,1,06,1.73,-2.3,M,-2.2,M,,*61
-0024 -0058 -1508  0014 -0004 -0018  0093 -0049  1038 -0458  0262  0181  2794 
$GPVTG,,T,,M,0.149,N,0.277,K,A*2D
$GPGGA,034734.10,1046.19419,N,10645.67292,E,1,06,1.73,-2.3,M,-2.2,M,,*61
-0023 -0061 -1510 -0003  0003 -0012  0129 -0033  1035 -0457  0263  0182  2808 
$GPVTG,,T,,M,0.067,N,0.123,K,A*22
$GPGGA,034734.20,1046.19421,N,10645.67292,E,1,06,1.73,-2.2,M,-2.2,M,,*68
-0022 -0059 -1509 -0013  0004 -0014  0103 -0039  1038 -0457  0262  0181  2808 
$GPVTG,,T,,M,0.155,N,0.287,K,A*2F
$GPGGA,034734.30,1046.19423,N,10645.67291,E,1,06,1.73,-2.1,M,-2.2,M,,*6B
-0023 -0059 -1509  0004 -0016 -0036  0093 -0043  1035 -0461  0263  0181  2808 
$GPVTG,,T,,M,0.126,N,0.233,K,A*24
$GPGGA,034734.40,1046.19424,N,10645.67292,E,1,06,1.73,-2.1,M,-2.2,M,,*68
-0024 -0060 -1510 -0017  0001 -0048  0133 -0036  1032 -0461  0263  0181  2794 
$GPVTG,,T,,M,0.034,N,0.063,K,A*21
$GPGGA,034734.50,1046.19424,N,10645.67292,E,1,06,1.73,-2.0,M,-2.2,M,,*68
-0024 -0061 -1511 -0020  0012  0010  0133 -0049  1058 -0460  0262  0184  2794 
$GPVTG,,T,,M,0.285,N,0.527,K,A*2C
$GPGGA,034734.60,1046.19429,N,10645.67291,E,1,06,1.73,-2.0,M,-2.2,M,,*65
-0025 -0056 -1508 -0009 -0006 -0026  0093 -0039  1022 -0460  0262  0183  2808 
$GPVTG,,T,,M,0.076,N,0.141,K,A*26
$GPGGA,034734.80,1046.19428,N,10645.67292,E,1,06,1.73,-2.0,M,-2.2,M,,*69
-0024 -0059 -1509  0008  0012 -0012  0109 -0036  1025 -2A
$GPGGA,034734.90,1046.19431,N,10645.67291,E,1,06,1.73,-2.0,M,-2.2,M,,*63
-0023 -0058 -1509 -0026 -0007 -0010  0113 -0043  1032 -0459  0263  0182  2808 
$GPVTG,,T,,M,0.160,N,0.297,K,A*28
$GPGGA,034735.00,1046.19432,N,10645.67290,E,1,06,1.73,-2.0,M,-2.2,M,,*69
-0024 -0059 -1509  0012  0007 -0011  0106 -0043  1032 -0458  0262  0183  2808 
$GPVTG,,T,,M,0.152,N,0.282,K,A*2D
$GPGGA,034735.10,1046.19432,N,10645.67291,E,1,06,1.73,-2.0,M,-2.2,M,,*69
-0023 -0058 -1509  0010 -0006 -0023  0113 -0049  1035 -0459  0263  0182  2808 
$GPVTG,,T,,M,0.091,N,0.169,K,A*25
$GPGGA,034735.20,1046.19435,N,10645.67290,E,1,06,1.73,-1.9,M,-2.2,M,,*66
-0023 -0059 -1509 -0027  0010  0000  0103 -0039  1035 -0457  0262  0182  2808 
$GPVTG,,T,,M,0.117,N,0.216,K,A*21
$GPGGA,034735.30,1046.19436,N,10645.67289,E,1,06,1.73,-1.8,M,-2.2,M,,*6D
-0024 -0059 -1509  0000  0006 -0013  0109 -0049  1042 -0462  0263  0183  2794 
$GPVTG,,T,,M,0.266,N,0.493,K,A*2F
$GPGGA,034735.40,1046.19438,N,10645.67287,E,1,06,1.73,-1.9,M,-2.2,M,,*6B
-0023 -0059 -1508  0049 -0028  0063  0109  0013  1002 -0461  0263  0184  2808 
$GPVTG,,T,,M,0.106,N,0.196,K,A*2A
$GPGGA,034735.50,1046.19437,N,10645.67288,E,1,06,1.73,-1.9,M,-2.2,M,,*6A
-0019 -0062 -1504  0027 -0177  0015  0063 -0033  1075 -0457  0265  0185  2794 
$GPVTG,,T,,M,0.149,N,0.276,K,A*2C
$GPGGA,034735.60,1046.19439,N,10645.67287,E,1,06,1.73,-1.9,M,-2.2,M,,*68
-0022 -0069 -1504 -0033 -0282 -0110  0116 -0049  1018 -0455  0265  0190  2794 
$GPVTG,,T,,M,0.111,N,0.205,K,A*25
$GPGGA,034735.70,1046.19439,N,10645.67286,E,1,06,1.73,-1.9,M,-2.2,M,,*68
-0023 -0090 -1510 -0012 -0226 -0119  0223 -0036  1008 -0454  0261  0198  2808 
$GPVTG,,T,,M,0.110,N,0.204,K,A*25
$GPGGA,034735.80,1046.19441,N,10645.67286,E,1,06,1.73,-1.9,M,-2.2,M,,*68
-0020 -0111 -1515  0000 -0091 -0020  0229 -0036  1012 -0449  0260  0200  2808 
$GPVTG,,T,,M,0.264,N,0.488,K,A*27
$GPGGA,034735.90,1046.19441,N,10645.67285,E,1,06,1.73,-1.9,M,-2.2,M,,*6A
-0021 -0116 -1514 -0008  0009  0002  0196 -0036  1038 -0449  0259  0201  2794 
$GPVTG,,T,,M,0.066,N,0.122,K,A*22
$GPGGA,034736.00,1046.19441,N,10645.67285,E,1,06,1.73,-1.9,M,-2.2,M,,*60
-0021 -0108 -1510  0000  0006 -0017  0183 -0029  1018 -0446  0260  0203  2808 
$GPVTG,,T,,M,0.142,N,0.263,K,A*23
$GPGGA,034736.20,1046.19444,N,10645.67285,E,1,06,1.73,-1.8,M,-2.2,M,,*66
-0022 -0106 -1510 -0037 -0020 -0014  0173 -0029  1025 -0448  0261  0201  2808 
$GPVTG,,T,,M,0.105,N,0.195,K,A*2A
$GPGGA,034736.30,1046.19446,N,10645.67284,E,1,06,1.73,-1.8,M,-2.2,M,,*64
-0022 -0107 -1511 -0001 -0002 -0013  0193 -0046  1018 -0451  0262  0205  2808 
$GPVTG,,T,,M,0.137,N,0.254,K,A*25
$GPGGA,034736.40,1046.19446,N,10645.67284,E,1,06,1.73,-1.8,M,-2.2,M,,*63
-0022 -0108 -1511  0011  0000 -0027  0193 -0039  1022 -0451  0263  0204  2822 
$GPVTG,,T,,M,0.202,N,0.374,K,A*23
$GPGGA,034736.50,1046.19448,N,10645.67284,E,1,06,1.73,-1.8,M,-2.2,M,,*6C
-0022 -0106 -1511 -0012 -0023 -0017  0196 -0059  1018 -0450  0260  0207  2808 
$GPVTG,,T,,M,0.141,N,0.262,K,A*21
$GPGGA,034736.60,1046.19449,N,10645.67283,E,1,06,1.73,-1.7,M,-2.2,M,,*66
-0024 -0108 -1511  0007 -0013 -0021  0206 -0056  1022 -0450  0260  0207  2808 
$GPVTG,,T,,M,0.060,N,0.111,K,A*24
$GPGGA,034736.70,1046.19451,N,10645.67282,E,1,06,1.73,-1.7,M,-2.2,M,,*6F
-0022 -0109 -1512  0003 -0001 -0012  0189 -0006  1028 -0452  0262  0205  2808 
$GPVTG,,T,,M,0.078,N,0.145,K,A*2C
$GPGGA,034736.80,1046.19452,N,10645.67281,E,1,06,1.73,-1.6,M,-2.2,M,,*61
-0021 -0110 -1513 -0034  0001 -0032  0206 -0046  1015 -0448  0262  0204  2794 
$GPVTG,,T,,M,0.058,N,0.108,K,A*27
$GPGGA,034736.90,1046.19452,N,10645.67282,E,1,06,1.73,-1.7,M,-2.2,M,,*62
-0022 -0110 -1512  0010  0013 -0004  0199 -0039  1025 -0447  0261  0204  2794 
$GPVTG,,T,,M,0.256,N,0.473,K,A*22
$GPGGA,034737.00,1046.19456,N,10645.67282,E,1,06,1.73,-1.6,M,-2.2,M,,*6F
-0022 -0108 -1511  0012 -0011 -0011  0189 -0043  1025 -0446  0261  0204  2808 
$GPVTG,,T,,M,0.111,N,0.206,K,A*26
$GPGGA,034737.10,1046.19455,N,10645.67282,E,1,06,1.73,-1.6,M,-2.2,M,,*6D
-0022 -0109 -1511 -0020 -0009 -0012  0206 -0036  1028 -0444  0259  0207  2808 
$GPVTG,,T,,M,0.058,N,0.107,K,A*28
$GPGGA,034737.20,1046.19457,N,10645.67283,E,1,06,1.73,-1.6,M,-2.2,M,,*6D
-0022 -0110 -1512 -0004  0000 -0021  0196 -0033  1022 -0447  0261  0204  2794 
$GPVTG,,T,,M,0.044,N,0.082,K,A*29
$GPGGA,034737.30,1046.19458,N,10645.67282,E,1,06,1.73,-1.6,M,-2.2,M,,*62
-0022 -0109 -1512  0021  0003 -0015  0213 -0029  1025 -0452  0262  0206  2808 
$GPVTG,,T,,M,0.160,N,0.296,K,A*29
$GPGGA,034737.40,1046.19460,N,10645.67282,E,1,06,1.73,-1.6,M,-2.2,M,,*6E
-0022 -0110 -1511  0003 -0004 -0011  0203 -0039  1028 -0451  0263  0205  2808 
$GPVTG,,T,,M,0.106,N,0.197,K,A*2B
$GPGGA,034737.50,1046.19462,N,10645.67282,E,1,06,1.73,-1.6,M,-2.2,M,,*6D
-0022 -0110 -1511  0000 -0007 -0011  0193 -0049  1022 -0449  0261  0206  2808 
$GPVTG,,T,,M,0.095,N,0.175,K,A*2C
$GPGGA,034737.60,1046.19463,N,10645.67281,E,1,06,1.73,-1.6,M,-2.2,M,,*6C
-0022 -0111 -1512 -0003 -0003 -0027  0216 -0036  1005 -0450  0260  0209  2808 
$GPVTG,,T,,M,0.071,N,0.131,K,A*26
$GPGGA,034737.70,1046.19464,N,10645.67282,E,1,06,1.73,-1.6,M,-2.2,M,,*69
-0022 -0112 -1513  0001  0008 -0032  0206 -0019  1025 -0451  0262  0206  2808 
$GPVTG,,T,,M,0.100,N,0.185,K,A*2E
$GPGGA,034737.80,1046.19467,N,10645.67282,E,1,06,1.73,-1.6,M,-2.2,M,,*65
-0022 -0110 -1512 -0009 -0006 -0020  0209 -0036  1025 -0446  0262  0203  2794 
$GPVTG,,T,,M,0.095,N,0.176,K,A*2F
$GPGGA,034737.90,1046.19468,N,10645.67281,E,1,06,1.73,-1.5,M,-2.2,M,,*6B
-0021 -0111 -1512  0010  0000 -0009  0203 -0026  1015 -0444  0260  0204  2808 
$GPVTG,,T,,M,0.140,N,0.258,K,A*29
$GPGGA,034738.00,1046.19469,N,10645.67281,E,1,06,1.73,-1.5,M,-2.2,M,,*6C
-0020 -0111 -1511 -0023  0000 -0017  0206 -0036  1015 -0445  0261  0206  2808 
$GPVTG,,T,,M,0.081,N,0.150,K,A*2E
$GPGGA,034738.10,1046.19512,N,10645.67249,E,1,08,0.95,-1.2,M,-2.2,M,,*64
-0022 -0112 -1510 -0004  0014 -0015  0199 -0059  1015 -0446  0261  0204  2822 
$GPVTG,,T,,M,0.038,N,0.070,K,A*2F
$GPGGA,034738.30,1046.19539,N,10645.67227,E,1,08,0.95,-0.9,M,-2.2,M,,*6D
-0020 -0110 -1510  0005  0010  0000  0189 -0029  1015 -0449  0261  0208  2808 
$GPVTG,,T,,M,0.117,N,0.217,K,A*20
$GPGGA,034738.50,1046.19563,N,10645.67208,E,1,08,0.95,-0.7,M,-2.2,M,,*67
-0021 -0111 -1511 -0003  0027 -0014  0206 -0036  1008 -0447  0260  0209  2822 
$GPVTG,,T,,M,0.031,N,0.058,K,A*2C
$GPGGA,034738.60,1046.19584,N,10645.67189,E,1,08,0.95,-0.4,M,-2.2,M,,*64
-0020 -0110 -1511 -0001  0082  0003  0223 -0049  1005 -0452  0263  0205  2808 
$GPVTG,,T,,M,0.043,N,0.079,K,A*2A
$GPGGA,034738.70,1046.19603,N,10645.67172,E,1,08,0.95,-0.1,M,-2.2,M,,*68
-0020 -0104 -1511 -0005  0080  0016  0183 -0026  1035 -0452  0264  0203  2822 
$GPVTG,,T,,M,0.067,N,0.124,K,A*25
$GPGGA,034738.80,1046.19620,N,10645.67157,E,1,08,0.95,0.1,M,-2.2,M,,*4C
-0021 -0097 -1508 -0025  0096 -0009  0179 -0043  1038 -0446  0263  0201  2822 
$GPVTG,,T,,M,0.044,N,0.082,K,A*29
$GPGGA,034738.90,1046.19633,N,10645.67144,E,1,08,0.95,0.3,M,-2.2,M,,*4F
-0022 -0092 -1507 -0011  0110  0003  0169 -0036  1032 -0448  0264  0197  2808 
$GPVTG,,T,,M,0.128,N,0.237,K,A*2E
$GPGGA,034739.00,1046.19644,N,10645.67133,E,1,08,0.95,0.5,M,-2.2,M,,*41
-0021 -0088 -1506 -0010  0051  0001  0163 -0036  1035 -0448  0265  0195  2808 
$GPVTG,,T,,M,0.070,N,0.130,K,A*26
$GPGGA,034739.10,1046.19650,N,10645.67125,E,1,08,0.95,0.7,M,-2.2,M,,*40
-0022 -0089 -1506 -0027  0081  0015  0179 -0043  1015 -0448  0265  0195  2808 
$GPVTG,,T,,M,0.071,N,0.132,K,A*25
$GPGGA,034739.20,1046.19655,N,10645.67118,E,1,08,0.95,0.8,M,-2.2,M,,*47
-0022 -0086 -1502  0024  0013  0089  0183 -0043  1045 -0446  0266  0193  2822 
$GPVTG,,T,,M,0.103,N,0.190,K,A*29
$GPGGA,034739.30,1046.19661,N,10645.67111,E,1,08,0.95,0.9,M,-2.2,M,,*49
-0021 -0092 -1494  0027  0099  0084  0143 -0083  1028 -0447  0271  0192  2808 
$GPVTG,,T,,M,0.187,N,0.346,K,A*2C
$GPGGA,034739.40,1046.19667,N,10645.67105,E,1,08,0.95,1.1,M,-2.2,M,,*44
-0017 -0094 -1492  0088  0020  0075  0179 -0016  0985 -0443  0274  0188  2822 
